,City Name,City Number,Latitude,Longitude,Temperature,Max Temperature,Humidity,Cloudiness,Wind Speed
0,Srivardhan,1255619,18.03,73.02,297.8,297.8,89,16,3.0
1,Rafai,236524,4.95,23.92,293.8,293.8,96,11,0.86
2,Ushuaia,3833367,-54.81,-68.31,280.15,280.15,99,75,2.6
3,Boden,606531,65.83,21.69,273.15,273.15,85,0,2.6
4,Jamestown,2069194,-33.21,138.6,283.7,283.7,72,74,3.78
5,Puerto Ayora,3652764,-0.74,-90.35,293.49,294.15,68,75,7.7
6,Thompson,6165406,55.74,-97.86,290.15,290.15,51,20,1.5
7,Albany,5106834,42.65,-73.75,294.72,298.15,73,1,2.1
8,Charters Towers,2171722,-20.07,146.27,297.6,297.6,42,38,5.9
9,Grand Gaube,934479,-20.01,57.66,295.26,295.37,83,40,8.2
10,Busselton,2075265,-33.64,115.35,286.63,288.15,64,51,2.68
11,Kiunga,2093846,-6.12,141.3,300.4,300.4,72,63,2.17
12,Santa Fe,3836277,-31.62,-60.7,290.93,290.93,39,0,4.92
13,Kodiak,4407665,39.95,-94.76,291.52,293.15,93,1,2.6
14,Anadyr,2127202,64.73,177.51,275.55,275.93,64,20,3.0
15,Pisco,3932145,-13.71,-76.2,289.99,290.15,82,0,7.2
16,Mahebourg,934322,-20.41,57.7,295.29,295.37,83,40,8.2
17,Kapaa,5848280,22.08,-159.32,302.78,304.15,70,20,4.1
18,New Norfolk,2155415,-42.78,147.06,285.81,286.15,47,40,2.6
19,Solnechnyy,2016307,50.72,136.64,286.2,286.2,68,0,1.54
20,Mataura,6201424,-46.19,168.86,287.04,287.04,57,33,4.92
21,Bukama,217834,-9.2,25.85,293.2,293.2,70,31,1.09
22,Nanortalik,3421765,60.14,-45.24,277.2,277.2,87,0,1.13
23,Ribeira Grande,3372707,38.52,-28.7,296.4,296.4,86,85,10.87
24,Burnie,2173125,-41.05,145.91,285.93,285.93,66,61,4.47
25,Vitim,2013375,59.44,112.57,276.1,276.1,92,94,2.63
26,Kununurra,2068110,-15.77,128.74,304.15,304.15,52,40,1.5
27,Hobart,2163355,-42.88,147.33,285.81,286.15,47,40,2.6
28,Bluff,2175403,-23.58,149.07,296.9,296.9,40,55,2.19
29,Vila Velha,6320062,-3.71,-38.6,299.15,299.15,74,20,4.6
30,Avarua,4035715,-21.21,-159.78,292.15,292.15,88,100,6.2
31,Bambous Virieux,1106677,-20.34,57.76,295.28,295.37,83,40,8.2
32,Tank,1163905,32.22,70.39,294.8,294.8,56,0,0.66
33,Tuktoyaktuk,6170031,69.44,-133.03,278.15,278.15,93,90,3.6
34,Rikitea,4030556,-23.12,-134.97,293.9,293.9,80,55,9.22
35,Atig,580426,56.69,59.43,272.3,272.3,96,51,1.45
36,Taoudenni,2450173,22.68,-3.98,308.5,308.5,7,0,3.63
37,Poiana Stampei,670028,47.31,25.13,272.04,272.04,87,12,0.91
38,Cherskiy,2126199,68.75,161.3,273.0,273.0,74,49,2.03
39,Caucaia,3402429,-3.73,-38.66,299.15,299.15,74,20,4.6
40,Teguise,2510573,29.06,-13.56,296.15,296.15,88,75,5.1
41,Cape Town,3369157,-33.93,18.42,285.01,286.48,71,0,4.1
42,Tsabong,932987,-26.02,22.4,283.5,283.5,27,0,6.69
43,Vaini,1273574,15.34,74.49,293.15,293.15,100,40,0.69
44,Hasaki,2112802,35.73,140.83,302.41,303.15,79,20,6.2
45,Flinders,6255012,-34.58,150.85,292.4,294.26,33,0,7.7
46,Sao Joao da Barra,3448903,-21.64,-41.05,293.6,293.6,85,100,6.54
47,Kavaratti,1267390,10.57,72.64,300.9,300.9,75,100,2.15
48,Half Moon Bay,5354943,37.46,-122.43,293.39,297.59,87,1,2.6
49,Port Elizabeth,4501427,39.31,-74.98,296.51,298.71,78,1,1.5
50,Ofunato,2111530,39.11,141.75,289.15,289.15,100,75,1.5
51,Lagoa,2267254,37.14,-8.45,289.76,290.15,72,0,3.1
52,Saskylakh,2017155,71.97,114.09,275.1,275.1,87,80,4.06
53,Saint George,262462,39.45,22.34,287.6,288.15,87,0,2.1
54,Hervey Bay,2146219,-25.3,152.85,299.09,300.37,53,40,3.6
55,Kamariotissa,736017,40.48,25.47,287.15,287.15,76,0,1.77
56,Punta Arenas,3874787,-53.16,-70.91,278.95,279.15,75,40,7.2
57,Muravlenko,1540711,63.79,74.5,279.3,279.3,89,100,11.05
58,Port Blair,1259385,11.67,92.75,300.4,300.4,80,100,3.82
59,Mount Gambier,2156643,-37.83,140.78,285.15,285.15,76,40,7.7
60,Hobyo,57000,5.35,48.53,296.8,296.8,81,12,9.1
61,Udachnyy,2014624,66.42,112.4,273.15,273.15,85,75,4.0
62,Sibolga,1213855,1.74,98.78,299.7,299.7,85,100,4.54
63,Tabou,2281120,4.42,-7.36,297.2,297.2,93,100,1.63
64,Shache,1280037,38.42,77.24,291.3,291.3,24,0,1.41
65,Shellbrook,6145951,53.22,-106.39,293.15,293.15,52,20,2.6
66,Yaan,2338660,7.38,8.57,297.0,297.0,93,93,2.02
67,Airai,1651810,-8.93,125.41,300.6,300.6,55,11,1.21
68,Hithadhoo,1282256,-0.6,73.08,301.2,301.2,72,100,6.76
69,Carnarvon,1014034,-30.97,22.13,276.0,276.0,64,0,9.92
70,Rio Grande,3451138,-32.03,-52.1,280.93,280.93,80,0,1.73
71,Lavrentiya,4031637,65.58,-170.99,272.9,272.9,88,100,2.81
72,Lompoc,5367788,34.64,-120.46,295.45,300.37,82,1,2.1
73,San Cristobal,3609418,14.68,-86.92,294.9,294.9,88,73,1.16
74,Saint-Philippe,6138908,45.36,-73.48,297.25,299.26,78,40,4.1
75,Bredasdorp,1015776,-34.53,20.04,282.15,282.15,76,69,2.1
76,Qaanaaq,3831208,77.48,-69.36,267.7,267.7,67,56,2.14
77,Provideniya,4031574,64.42,-173.23,278.15,278.15,65,40,4.0
78,Tasiilaq,3424607,65.61,-37.64,280.15,280.15,75,100,11.8
79,Hermanus,3366880,-34.42,19.24,284.26,284.26,63,24,3.13
80,Luderitz,3355672,-26.65,15.16,288.15,288.15,51,0,6.2
81,Severo-Kurilsk,2121385,50.68,156.12,281.9,281.9,80,83,1.69
82,Mar del Plata,3863379,-46.43,-67.52,283.9,283.9,44,62,7.2
83,Trinidad,3902377,-14.83,-64.9,301.9,301.9,41,6,1.54
84,Butaritari,2110227,3.07,172.79,302.6,302.6,60,55,3.07
85,Coihaique,3894426,-45.58,-72.07,281.15,281.15,65,75,2.6
86,Hilo,5855927,19.71,-155.08,298.1,305.15,59,40,6.7
87,Henties Bay,3356832,-22.12,14.28,286.48,286.48,88,0,2.89
88,Victor Harbor,2059470,-35.55,138.62,286.14,288.15,54,75,4.6
89,Naron,3115739,43.52,-8.15,288.5,290.37,82,0,3.6
90,Dikson,1507390,73.51,80.55,275.8,275.8,94,100,0.47
91,Yerofey Pavlovich,2012938,53.97,121.97,280.0,280.0,81,76,2.56
92,Chuy,3443061,-33.69,-53.46,282.6,282.6,59,0,2.8
93,Lebu,344979,8.96,38.73,286.3,286.3,94,100,1.19
94,Bosaso,64013,11.28,49.18,302.9,302.9,79,0,5.06
95,Mukhen,2019718,48.19,136.14,286.3,286.3,69,0,3.43
96,East London,1006984,-33.02,27.91,282.2,282.2,71,10,7.86
97,Tiksi,2015306,71.64,128.87,275.8,275.8,98,100,2.55
98,Baghmara,1274553,23.8,86.21,297.9,297.9,82,100,1.33
99,Atuona,4020109,-9.8,-139.03,299.8,299.8,79,20,8.35
100,Vostok,2013279,46.45,135.83,286.2,286.2,57,2,0.95
101,Padang,1633419,-0.92,100.36,299.5,299.5,79,100,4.04
102,Alwar,1278946,27.56,76.61,296.4,296.4,87,12,1.53
103,Gorontalo,1643837,0.54,123.06,300.7,300.7,68,37,1.59
104,Klaksvik,2618795,62.23,-6.59,283.15,283.15,100,36,9.3
105,Ariquemes,3665199,-9.91,-63.03,298.7,298.7,69,47,0.22
106,Khatanga,2022572,71.98,102.47,275.2,275.2,96,100,6.85
107,Comodoro Rivadavia,3860443,-45.87,-67.48,288.15,288.15,30,0,2.1
108,Souillac,3026644,45.6,-0.6,287.13,288.71,93,0,3.34
109,Georgetown,3378644,6.8,-58.16,299.15,299.15,88,20,2.1
110,Graaff-Reinet,1000543,-32.25,24.53,279.5,279.5,67,2,2.05
111,Andra,1511646,62.52,65.89,275.5,275.5,96,100,8.28
112,Touros,3386213,-5.2,-35.46,295.15,295.15,88,40,1.0
113,Geraldton,5960603,49.72,-86.95,287.15,287.15,87,75,2.1
114,Sistranda,3139597,63.73,8.83,283.15,283.15,76,20,5.1
115,Imbituba,3461370,-28.24,-48.67,290.15,290.15,63,20,5.7
116,Yellowknife,6185377,62.45,-114.38,286.15,286.15,87,75,1.5
117,Barrow,3833859,-38.31,-60.23,282.6,282.6,49,0,4.31
118,Mehriz,124274,31.58,54.44,296.15,296.15,16,0,1.0
119,Pahrump,5509851,36.21,-115.98,301.38,302.59,9,1,5.1
120,Galdar,2517436,28.15,-15.65,295.0,296.15,88,40,6.2
121,Ixtapa,4004293,20.71,-105.21,301.37,302.15,79,90,2.1
122,Lar,133595,27.66,54.32,298.15,298.15,27,0,0.14
123,Potosi,3907584,-19.59,-65.75,280.7,280.7,68,88,2.03
124,Torbay,6167817,47.66,-52.73,284.05,284.82,71,40,13.9
125,Hovd,7626384,63.83,10.7,282.26,283.15,81,0,5.1
126,Pangnirtung,6096551,66.15,-65.72,269.2,269.2,72,0,1.75
127,Kieta,2094027,-6.22,155.63,301.3,301.3,67,86,2.14
128,Kaitangata,2208248,-46.28,169.85,286.0,286.0,54,57,3.85
129,Bedele,342567,8.46,36.35,285.4,285.4,93,29,0.27
130,Tarko-Sale,1490085,64.92,77.78,279.26,279.26,94,100,13.83
131,Novi Knezevac,787600,46.04,20.09,291.5,291.5,28,100,1.83
132,Bilibino,2126682,68.06,166.44,268.3,268.3,75,94,1.38
133,Qaqortoq,3420846,60.72,-46.03,277.15,277.15,80,75,1.5
134,Menongue,3347353,-14.66,17.68,291.0,291.0,30,95,1.84
135,Hamilton,5969785,43.26,-79.87,297.9,300.15,53,1,6.7
136,Berea,4283974,37.57,-84.3,297.48,300.15,41,1,2.1
137,Kazachinskoye,1504075,57.69,93.28,281.1,281.1,76,100,5.41
138,Victoria,1733782,5.28,115.24,301.02,302.15,70,75,2.1
139,Taos,5493811,36.41,-105.57,288.55,292.59,23,1,3.1
140,Sarkand,1519691,45.41,79.91,296.9,296.9,11,58,5.3
141,Chunskiy,1507636,56.08,99.63,280.7,280.7,85,77,2.98
142,Ilulissat,3423146,69.22,-51.1,276.15,276.15,74,100,1.5
143,Tashtyp,1490036,52.8,89.89,280.1,280.1,90,0,0.25
144,Kisesa,152224,-2.55,33.05,294.15,294.15,83,20,3.13
145,Valentin Gomez Farias,4011743,24.05,-104.7,294.38,295.15,49,75,3.1
146,Konstantinovo,730435,42.0,25.79,281.15,281.15,87,5,0.23
147,Mandurah,2067119,-32.55,115.7,290.07,290.37,51,59,5.1
148,Port Alfred,964432,-33.59,26.89,284.82,284.82,86,17,1.79
149,Bayan,1813029,36.1,102.26,279.7,279.7,76,81,0.75
150,Turan,1488950,52.15,93.92,279.7,279.7,84,0,0.17
151,Bluefield,4799622,37.27,-81.22,294.86,297.15,73,1,1.38
152,Sherman,4728328,33.64,-96.61,303.12,304.82,88,1,2.1
153,Bang Saphan,1157662,11.21,99.51,298.15,298.15,100,90,0.5
154,Vardo,4372777,39.62,-77.74,297.84,300.37,54,1,3.6
155,Revelstoke,6121621,50.99,-118.19,287.15,287.15,93,90,1.0
156,Cusuna,3612949,15.85,-85.23,302.1,302.1,69,1,1.62
157,Cabo San Lucas,3985710,22.89,-109.91,300.63,302.04,94,90,6.7
158,Norman Wells,6089245,65.28,-126.83,284.15,284.15,62,75,4.6
159,Ambovombe,1079048,-25.18,46.09,294.2,294.2,73,0,5.52
160,High Rock,3572189,26.63,-78.28,299.2,299.2,77,100,9.28
161,Umm Kaddadah,364933,13.6,26.69,302.5,302.5,53,0,5.75
162,Kilindoni,157429,-7.91,39.67,298.7,298.7,79,7,6.17
163,Havoysund,779622,71.0,24.66,276.15,276.15,73,75,8.2
164,Havelock,4470244,34.88,-76.9,295.2,297.59,68,1,2.6
165,Pevek,2122090,69.7,170.27,275.4,275.4,90,100,8.01
166,Ambilobe,1082243,-13.19,49.05,294.8,294.8,75,1,5.12
167,Ostrovnoy,556268,68.05,39.51,276.5,276.5,84,100,9.29
168,Ugoofaaru,1337619,5.67,73.0,301.2,301.2,80,100,7.85
169,Mujiayingzi,2035707,42.12,118.78,288.6,288.6,34,0,2.79
170,Teseney,327651,15.11,36.66,298.8,298.8,77,51,5.7
171,Russell,4278471,38.9,-98.86,292.9,294.26,56,1,0.91
172,Bogorodskoye,2126638,52.37,140.44,282.4,282.4,86,15,6.94
173,Kerchevskiy,551047,59.95,56.29,271.7,271.7,94,85,0.6
174,Atambua,1651103,-9.11,124.89,298.2,298.2,78,12,2.82
175,Upernavik,3418910,72.79,-56.15,275.9,275.9,75,73,4.63
176,Kangaatsiaq,3422683,68.31,-53.46,278.2,278.2,86,100,2.41
177,Najran,103630,17.54,44.22,295.15,295.15,26,0,1.55
178,Manzhouli,2035836,49.6,117.43,284.5,284.5,58,0,5.67
179,San-Pedro,2282006,4.75,-6.64,295.5,295.5,98,100,0.76
180,Nangomba,877597,-10.9,38.52,292.7,292.7,93,1,0.8
181,Hambantota,1244926,6.12,81.12,298.15,298.15,100,90,1.5
182,Umba,479071,66.69,34.34,274.9,274.9,90,58,3.89
183,Tabora,149658,-5.02,32.81,295.15,295.15,40,0,2.56
184,La Ronge,6050066,55.1,-105.3,292.15,292.15,55,5,2.1
185,Skibotn,7626405,69.39,20.27,273.22,274.15,93,75,5.1
186,Neiafu,4032420,-18.65,-173.98,294.8,294.8,67,47,10.01
187,Katsuura,1865309,33.93,134.5,301.01,303.15,66,75,5.7
188,Bandarbeyla,64814,9.49,50.81,296.1,296.1,82,52,8.25
189,Bonthe,2409914,7.53,-12.5,298.2,298.2,89,100,3.26
190,Christchurch,2192362,-43.53,172.64,291.72,292.15,45,100,5.1
191,Dunedin,2191562,-45.87,170.5,282.4,282.4,82,89,0.95
192,Tautira,4033557,-17.73,-149.15,303.15,303.15,58,20,9.8
193,Baykit,1510689,61.68,96.39,274.8,274.8,90,100,4.2
194,Assiniboia,5887798,49.63,-105.99,293.9,293.9,39,5,1.75
195,Papara,3395473,-3.98,-38.73,299.15,299.15,74,20,4.6
196,Totness,4589590,33.74,-80.8,296.61,300.15,68,1,3.1
197,Evensk,2125693,61.92,159.24,279.7,279.7,50,95,1.02
198,Sept-Iles,6144312,50.2,-66.38,290.0,290.15,88,75,6.7
199,Chicomuselo,3530935,15.77,-92.27,297.1,297.1,82,47,1.31
200,Hammond,4326868,30.5,-90.46,299.89,302.04,83,1,3.1
201,Piney Green,4490053,35.09,-78.48,296.47,298.15,83,1,2.1
202,Sao Filipe,3374210,14.9,-24.5,300.0,300.0,82,52,8.71
203,Samarai,2132606,-10.62,150.67,296.2,296.2,89,100,4.1
204,Togur,1489499,58.36,82.83,287.1,287.1,68,100,6.4
205,Daru,2098329,-9.07,143.21,298.6,298.6,82,99,5.31
206,Cap-aux-Meules,5915327,47.38,-61.86,291.15,291.15,72,90,9.8
207,Nikolskoye,546105,59.7,30.79,275.02,275.93,84,0,3.0
208,Lodwar,189280,3.12,35.6,300.9,300.9,42,42,9.05
209,La Peca,3695675,-5.61,-78.44,295.0,295.0,76,18,2.25
210,Xuanzhou,1788081,30.95,118.78,291.7,291.7,66,0,2.47
211,Aluksne,461528,57.42,27.05,274.1,274.1,90,2,1.9
212,Jiangyou,1885823,31.78,104.73,287.3,287.3,93,100,0.91
213,Conceicao do Araguaia,3401845,-8.26,-49.26,302.3,302.3,41,75,1.11
214,Fort Nelson,5955902,58.81,-122.69,290.15,290.15,33,75,3.1
215,Shenjiamen,1795632,29.96,122.3,295.6,295.6,76,12,8.7
216,Otacilio Costa,3455750,-27.48,-50.12,284.26,284.26,99,46,1.96
217,Kharan,1174062,28.58,65.42,298.5,298.5,31,0,1.72
218,Coquimbo,3893629,-29.95,-71.34,286.07,287.59,81,20,2.1
219,Port Lincoln,2063036,-34.72,135.86,285.9,285.9,58,91,4.22
220,Inuvik,5983607,68.36,-133.71,278.15,278.15,100,90,4.1
221,Bethel,5880568,60.79,-161.76,284.15,284.15,57,40,3.6
222,Port Macquarie,2152659,-31.43,152.91,296.45,299.26,40,32,4.6
223,Pavlodar,1520240,52.28,76.96,282.15,282.15,87,90,8.0
224,Sur,286245,22.57,59.53,302.0,302.0,46,8,3.48
225,Maceio,3395981,-9.67,-35.74,298.15,298.15,83,40,3.6
226,Plainview,5528450,34.18,-101.71,296.78,297.15,53,1,0.62
227,Neuquen,3843123,-38.95,-68.06,288.14,291.15,34,0,1.5
228,Arlit,2447513,18.74,7.39,305.0,305.0,11,0,5.73
229,Ancud,3899695,-41.87,-73.83,279.15,279.15,87,40,1.5
230,Asosa,343292,10.07,34.53,290.8,290.8,75,45,1.85
231,Karsava,458972,56.78,27.69,274.5,274.5,89,0,2.07
232,Slave Lake,6149374,55.28,-114.77,288.15,288.15,77,90,3.9
233,Ovalle,3877918,-30.6,-71.2,282.3,282.3,90,0,1.57
234,Grindavik,3416888,63.84,-22.43,284.15,284.15,93,90,10.8
235,Payson,5779548,40.04,-111.73,293.19,295.37,27,1,3.6
236,Singaparna,1626936,-7.35,108.11,293.4,293.4,82,94,2.32
237,Itoman,1861280,26.12,127.67,299.8,300.15,83,75,4.6
238,Arraial do Cabo,3471451,-22.97,-42.02,292.9,292.9,87,100,6.84
239,Tromso,3133895,69.65,18.96,271.97,274.15,61,75,5.1
240,Kathmandu,1283240,27.71,85.32,292.15,292.15,100,75,0.7
241,Ciudad Bolivar,3645532,8.12,-63.55,296.2,296.2,94,100,1.94
242,Salalah,286621,17.01,54.1,300.15,300.15,78,75,2.6
243,Karratha,6620339,-20.74,116.85,296.3,296.3,13,0,10.13
244,Castro,3896218,-42.48,-73.76,279.15,279.15,87,40,1.5
245,Rochester,5043473,44.02,-92.46,287.75,289.26,87,90,2.6
246,Cullinan,1012413,-25.67,28.53,290.27,291.48,27,0,0.5
247,Muhos,645765,64.81,26.0,278.15,278.15,65,0,4.6
248,Meulaboh,1214488,4.14,96.13,300.1,300.1,80,67,3.58
249,Prince Rupert,6113406,54.32,-130.32,287.15,287.15,76,75,2.6
250,Alice Springs,2077895,-23.7,133.88,289.15,289.15,36,90,5.7
251,Harper,4696310,30.3,-99.24,301.59,303.15,42,1,1.5
252,Tual,1623197,-5.67,132.75,298.8,298.8,85,90,5.39
253,Buraydah,107304,26.33,43.97,301.15,301.15,24,0,2.6
254,Viedma,3832899,-40.81,-62.99,285.1,285.1,32,9,4.33
255,Solano,3667868,0.7,-75.25,299.4,299.4,70,37,0.81
256,Santiago,1687801,16.69,121.54,297.6,297.6,72,12,0.45
257,Iquique,3887127,-20.22,-70.14,288.15,288.15,82,0,4.1
258,Mimongo,2398430,-1.62,11.6,294.5,294.5,98,99,0.99
259,Semporna,1733697,4.48,118.61,300.15,300.15,88,75,1.5
260,Ust-Nera,2120048,64.57,143.24,273.5,273.5,71,100,1.54
261,Shiyan,1794903,32.65,110.78,287.7,287.7,68,2,1.74
262,Bembereke,2395182,10.23,2.66,296.4,296.4,95,84,2.01
263,Leningradskiy,2123814,69.38,178.42,273.2,273.2,98,100,6.3
264,Antofagasta,3899539,-23.65,-70.4,287.15,287.15,82,75,3.1
265,Ilorin,2337639,8.5,4.55,296.8,296.8,91,100,3.0
266,Taikang,2034600,46.86,124.44,290.2,290.2,44,0,3.29
267,Nizhnyaya Tavda,1497376,57.67,66.17,273.5,273.5,94,36,4.11
268,Calabozo,3647444,8.92,-67.43,296.9,296.9,92,100,1.72
269,Vincennes,6613142,48.85,2.44,286.37,287.59,87,20,2.1
270,Guerrero Negro,4021858,27.97,-114.04,295.9,295.9,79,0,4.88
271,Timra,2669047,62.49,17.33,272.76,274.26,84,3,3.1
272,Emerald,2167426,-23.53,148.16,299.17,300.37,41,61,2.6
273,Esperance,2071860,-33.86,121.89,284.15,284.15,93,66,4.1
274,Bajil,2513562,38.23,-2.07,285.6,285.6,91,74,1.09
275,Chapais,5919850,49.78,-74.86,292.15,292.15,100,90,5.7
276,Tutoia,3385899,-2.76,-42.27,296.3,296.3,91,0,2.64
277,Huarmey,3939168,-10.07,-78.15,289.5,289.5,93,100,5.81
278,Gat,2249901,14.69,-16.54,300.76,301.15,83,40,2.6
279,Gaya,1271439,24.8,85.01,298.15,298.15,94,40,1.0
280,Manacapuru,3663529,-3.3,-60.62,301.15,301.15,74,20,2.6
281,Iqaluit,5983720,63.75,-68.52,273.9,274.15,86,75,3.6
282,Constitucion,4011743,23.99,-104.67,294.39,295.15,49,75,3.1
283,Talnakh,1490256,69.49,88.39,274.15,274.15,80,0,8.0
284,Polonne,696660,50.12,27.51,282.4,282.4,92,15,2.83
285,Ihosy,1064275,-22.4,46.13,286.4,286.4,84,44,6.36
286,Corvallis,5720727,44.56,-123.26,289.69,291.15,82,90,3.6
287,Portland,4975802,43.66,-70.25,293.03,296.15,68,1,1.5
288,Mount Isa,2065594,-20.73,139.49,297.15,297.15,17,0,6.7
289,Sesheke,898905,-17.47,24.29,289.15,289.15,26,31,1.5
290,Mehamn,778707,71.03,27.85,276.5,276.5,78,98,8.52
291,Lasa,146639,34.92,32.53,293.71,294.15,82,0,3.1
292,Yumen,1528998,40.29,97.04,288.1,288.1,29,0,5.18
293,Nuuk,3421319,64.17,-51.74,274.97,275.15,100,35,2.6
294,Srednekolymsk,2121025,67.46,153.71,274.1,274.1,53,55,4.18
295,Vestmanna,2610343,62.16,-7.17,283.15,283.15,100,35,9.3
296,Longyearbyen,2729907,78.22,15.63,272.15,272.15,80,75,1.5
297,Berlevag,780687,70.86,29.09,278.2,278.2,77,100,10.77
298,Pedasi,3703239,7.53,-80.03,297.0,297.0,90,95,1.54
299,Valu lui Traian,663234,44.16,28.47,285.14,287.04,87,0,3.6
300,Necochea,3430443,-38.55,-58.74,281.73,283.15,64,0,1.79
301,Saldanha,2737599,41.42,-6.55,286.5,286.5,75,59,0.82
302,Gurun,1735485,5.82,100.48,298.74,300.15,83,75,1.5
303,Kampot,1831112,10.62,104.18,298.18,299.15,94,75,2.1
304,Palauig,1696188,15.44,119.9,300.7,300.7,70,39,1.68
305,Ponta do Sol,3453439,-20.63,-46.0,294.8,294.8,81,83,2.76
306,Cap Malheureux,934649,-19.98,57.61,295.26,295.37,83,40,8.2
307,Muskegon,5003132,43.23,-86.25,293.62,294.26,94,90,4.1
308,Mgandu,154097,-5.96,34.11,290.1,290.1,63,0,4.94
309,Lahad Datu,1733953,5.02,118.33,298.1,298.1,88,74,0.82
310,Dovolnoye,1507220,54.5,79.67,285.6,285.6,82,83,3.11
311,Fakel,563354,57.63,53.03,272.0,272.0,93,57,1.35
312,Mayumba,2399001,-3.44,10.65,297.3,297.3,86,100,4.43
313,Faya,110690,18.39,42.45,289.15,289.15,26,0,1.04
314,Pacific Grove,5380437,36.62,-121.92,295.6,302.15,68,1,5.1
315,Tawang,1254832,27.59,91.87,285.0,285.0,95,100,0.57
316,Sungaipenuh,1625929,-2.08,101.38,295.5,295.5,75,25,0.64
317,Constantine,2501152,36.36,6.61,296.15,296.15,69,75,2.1
318,Beian,3160100,63.66,9.57,283.15,283.15,76,20,5.1
319,Nola,2383827,3.52,16.05,294.6,294.6,91,70,0.8
320,Atikokan,5888001,48.76,-91.62,286.4,286.4,91,92,2.28
321,Uvat,1487939,59.14,68.9,276.3,276.3,87,100,6.4
322,Codrington,2160063,-28.95,153.24,299.71,300.93,42,22,3.1
323,San Isidro,3621849,10.02,-84.06,293.94,294.82,94,90,2.1
324,Port Hedland,2063042,-20.31,118.58,299.15,299.15,21,0,9.3
325,Puerto Suarez,3465342,-18.96,-57.8,302.3,302.3,35,0,3.46
326,Rio Claro,3451234,-22.41,-47.56,291.38,293.15,77,0,7.7
327,Magdagachi,2020591,53.45,125.8,282.4,282.4,64,41,5.67
328,Porto-Vecchio,2985947,41.59,9.28,294.8,296.15,83,20,5.7
329,Harwich,4939004,41.69,-70.08,292.2,293.15,82,1,8.7
330,San Ramon de la Nueva Oran,3836620,-23.13,-64.33,289.8,289.8,39,17,0.9
331,Matara,425378,-3.48,29.48,284.9,284.9,79,2,0.23
332,Nerja,2513240,36.75,-3.88,291.26,295.37,82,84,0.5
333,Nouadhibou,2377457,20.93,-17.03,297.15,297.15,69,29,7.2
334,Ayia Galini,264260,35.1,24.68,291.0,292.59,68,0,2.6
335,Nishihara,1850144,35.74,139.53,300.61,303.15,69,40,9.3
336,Jining,1805518,35.41,116.58,292.6,292.6,44,0,1.21
337,Tomatlan,3981391,19.93,-105.25,301.1,301.1,79,36,3.7
338,Vogan,2363490,6.33,1.53,298.15,298.15,94,20,2.6
339,Tuatapere,2180815,-46.13,167.69,287.04,287.04,57,33,4.92
340,Neubrandenburg,2866135,53.56,13.26,286.26,287.04,87,14,0.89
341,Amnat Charoen,1621060,15.86,104.63,295.8,295.8,78,96,5.53
342,Ngunguru,2186111,-35.62,174.5,292.59,292.59,54,57,3.13
343,Cockburn Town,3576994,21.46,-71.14,302.4,302.4,69,95,1.44
344,Khilok,2022463,51.36,110.46,281.5,281.5,78,39,0.57
345,Nuevo Progreso,3520271,26.05,-97.95,303.35,305.37,66,40,4.1
346,Mao,3496831,19.55,-71.08,299.77,300.37,74,75,2.6
347,Wagar,4069458,31.44,-87.99,299.26,299.26,72,0,2.03
348,Mmabatho,975436,-25.85,25.61,287.15,287.15,33,79,3.1
349,Mineiros,3457147,-17.57,-52.55,296.2,296.2,69,66,2.59
350,Villaviciosa,3104707,43.48,-5.43,286.77,294.26,87,0,2.1
351,Sitka,4267710,37.17,-99.65,293.72,294.26,53,0,3.58
352,Cleveland,5150529,41.51,-81.69,297.89,300.37,41,1,2.1
353,Osoyoos,6094665,49.03,-119.47,288.98,293.15,93,90,2.6
354,Cururupu,3401148,-1.82,-44.87,296.1,296.1,93,15,1.21
355,Clyde River,5924351,70.47,-68.59,273.15,273.15,93,90,4.6
356,Faanui,4034551,-16.48,-151.75,300.1,300.1,79,0,8.47
357,Makakilo City,5850554,21.35,-158.09,303.27,304.15,58,90,4.1
358,Korem,332746,12.51,39.52,286.4,286.4,62,3,1.23
359,Auki,2339937,12.18,6.51,299.2,299.2,57,2,3.0
360,Lethem,3379316,3.38,-59.8,300.7,300.7,68,56,1.92
361,Florianopolis,3463237,-27.6,-48.55,286.12,290.37,63,20,5.7
362,Konstancin-Jeziorna,768216,52.08,21.12,282.44,284.82,100,10,1.82
363,Linxia,1803331,35.6,103.21,282.0,282.0,65,73,2.09
364,Malumfashi,2331005,11.79,7.62,297.8,297.8,57,2,2.97
365,Kudat,1736458,6.89,116.84,301.0,301.15,78,75,3.1
366,Husavik,5961417,50.56,-96.99,287.82,289.26,72,61,2.67
367,Cabra,2520645,37.47,-4.43,288.37,289.26,77,82,0.4
368,Fallon,5681948,46.84,-105.12,289.54,289.82,55,1,2.6
369,Walvis Bay,3359638,-22.95,14.51,285.97,286.48,81,0,1.5
370,Marktheidenfeld,2873301,49.85,9.61,287.3,289.26,87,75,2.1
371,Haines Junction,5969025,60.75,-137.51,279.2,279.2,62,87,3.48
372,Magaria,2441482,13.0,8.91,301.8,301.8,32,0,1.35
373,Bosobolo,2316473,4.19,19.88,295.6,295.6,88,20,0.95
374,Sumbe,3346015,-11.2,13.84,294.5,294.5,87,38,3.06
375,Batagay,2027044,67.65,134.64,276.0,276.0,78,97,1.51
376,Lata,1253628,30.78,78.62,274.3,274.3,83,32,0.3
377,Zapolyarnyy,464790,69.43,30.82,276.15,276.15,89,75,9.3
378,Manyana,2145554,-35.26,150.51,290.44,292.59,33,0,7.7
379,Saurimo,145531,-9.66,20.4,292.8,292.8,76,22,0.74
380,Malanje,2239862,-9.54,16.35,294.9,294.9,70,88,1.88
381,Kita,1850144,35.76,139.74,300.78,303.15,69,40,9.3
382,Gali,614613,42.63,41.74,278.5,278.5,49,0,2.63
383,Qiongshan,1797535,20.01,110.35,298.15,298.15,78,40,1.0
384,Mecca,104515,21.43,39.83,298.1,298.1,75,0,1.37
385,Sydney Mines,7303783,46.24,-60.22,288.88,291.48,82,20,4.6
386,Aklavik,5882953,68.22,-135.01,278.15,278.15,100,90,4.1
387,Taltal,3870243,-25.41,-70.49,285.6,285.6,81,0,1.49
388,Maniitsoq,3421982,65.42,-52.9,276.8,276.8,78,0,2.43
389,Barinitas,3648540,8.76,-70.41,284.8,284.8,96,100,0.82
390,Cidreira,3466165,-30.17,-50.22,284.3,284.3,61,0,3.33
391,Bereda,3105522,43.27,-7.54,287.85,290.37,82,0,3.6
392,Itarema,3393692,-2.92,-39.92,297.6,297.6,76,0,4.49
393,Karachi,1174872,24.87,67.03,303.15,303.15,74,20,2.19
394,Deer Lake,5937252,49.18,-57.43,288.89,289.15,63,75,6.7
395,Les Cayes,3728097,18.19,-73.75,302.1,302.1,73,80,2.71
396,Port Keats,2063039,-14.25,129.55,302.6,302.6,56,12,1.55
397,Beaupre,6325479,47.04,-70.9,295.86,296.48,78,75,5.1
398,Tuburan,1681075,10.73,123.82,301.15,301.15,78,75,1.0
399,Santa Maria,3462672,-16.02,-48.01,302.15,302.15,30,0,4.1
400,Huacho,3940002,-11.11,-77.61,289.5,289.5,93,90,5.97
401,Mizdah,2214827,31.45,12.98,296.1,296.1,62,0,4.0
402,Chokurdakh,2126123,70.62,147.9,272.6,272.6,67,32,4.43
403,Yerbogachen,2012956,61.28,108.01,273.6,273.6,82,63,1.65
404,Omboue,2396853,-1.57,9.26,297.7,297.7,85,55,5.53
405,Zhezkazgan,1516589,47.8,67.71,282.9,282.9,52,0,4.87
406,Buala,2109528,-8.15,159.59,297.9,297.9,96,100,8.66
407,Wamba,204318,2.14,27.99,292.7,292.7,97,62,0.96
408,Alofi,4036284,-19.06,-169.92,297.15,297.15,60,84,7.7
409,Qinzhou,1797551,21.96,108.62,294.6,294.6,68,9,3.97
410,Richards Bay,962367,-28.77,32.06,291.6,291.6,84,100,14.8
411,Uruzgan,1131462,32.93,66.63,284.1,284.1,20,0,3.18
412,Ballitoville,1021360,-29.54,31.21,287.64,289.82,63,75,4.6
413,San Patricio,3437029,-26.98,-56.83,289.4,289.4,48,43,5.16
414,Biaora,1275762,23.92,76.91,295.7,295.7,94,25,2.06
415,Chabahar,1161724,25.29,60.65,298.6,298.6,75,0,0.71
416,Marsh Harbour,3571913,26.54,-77.06,299.1,299.1,79,100,10.06
417,Gimli,5961417,50.63,-96.99,287.0,287.59,72,32,2.35
418,Mirnyy,502265,56.57,36.46,276.0,276.0,83,78,5.12
419,Izyum,707292,49.21,37.25,281.0,281.0,84,46,4.84
420,Bam,141736,29.11,58.36,286.8,286.8,18,0,1.05
421,Calvinia,3369174,-31.47,19.78,280.6,280.6,61,24,3.29
422,Vilyuysk,2013392,63.75,121.63,275.3,275.3,86,20,3.48
423,Aleysk,1511783,52.5,82.77,293.9,293.9,28,80,6.44
424,Raton,5486795,36.9,-104.44,295.14,297.15,26,1,7.2
425,Saint-Augustin,6138501,45.63,-73.98,297.24,299.26,73,75,4.6
426,Szczecinek,3083826,53.71,16.69,284.25,284.82,91,0,3.58
427,Bonavista,5905393,48.65,-53.11,284.82,284.82,72,37,8.94
428,Fort Wellington,3378690,6.4,-57.6,298.2,298.2,87,58,1.14
429,Kindu,212902,-2.95,25.92,295.3,295.3,86,3,0.61
430,Quartucciu,2523666,39.25,9.18,296.26,297.15,94,0,4.1
431,Nurota,1513087,40.56,65.69,287.15,287.15,62,100,5.1
432,Agadez,2448085,16.97,7.99,306.5,306.5,11,0,4.02
433,Beringovskiy,2126710,63.05,179.32,276.0,276.0,49,39,4.46
434,Luanda,2240449,-8.83,13.24,295.15,295.15,94,40,1.5
435,Ures,3971596,30.73,-112.95,302.59,302.59,69,44,1.79
436,Harvard,5069773,40.62,-98.1,291.58,293.15,56,1,0.73
437,Porto Novo,6322184,-23.68,-45.44,290.15,290.15,77,75,2.1
438,Shakopee,5046997,44.8,-93.53,287.62,288.71,87,1,1.5
439,Weligama,1223738,5.97,80.42,300.7,300.7,79,100,6.68
440,Los Llanos de Aridane,2514651,28.66,-17.92,295.15,295.15,88,75,4.1
441,Namibe,3347019,-15.19,12.15,292.1,292.1,84,28,1.62
442,Zacualpan,3979819,21.25,-105.17,300.21,302.15,83,75,3.1
443,Tulum,3515040,20.21,-87.46,301.02,301.15,83,40,1.5
444,Naze,2337542,5.43,7.07,299.15,299.15,88,40,1.68
445,Fairbanks,5861897,64.84,-147.72,280.73,282.15,49,1,2.6
446,Kudahuvadhoo,1337607,2.67,72.89,298.6,298.6,89,100,8.29
447,Langham,6049403,52.36,-106.96,293.73,294.82,42,20,3.6
448,Narsaq,3421719,60.91,-46.05,277.15,277.15,80,75,1.5
449,Bathsheba,3374083,13.22,-59.52,302.15,302.15,74,40,7.7
450,Pingliang,1798760,35.54,106.68,284.1,284.1,70,2,1.06
451,Wanxian,1791748,30.8,108.39,290.0,290.0,69,22,1.88
452,Baykalsk,2026979,51.52,104.15,283.2,283.2,76,34,0.7
453,Manokwari,1636308,-0.87,134.08,299.7,299.7,67,83,1.82
454,Riyadh,108410,24.63,46.72,297.15,297.15,23,0,2.1
455,Moree,2156927,-29.46,149.84,295.53,295.93,21,40,7.7
456,Nalgonda,1262067,17.05,79.27,297.0,297.0,92,7,1.15
457,Pilna,689304,50.16,37.0,278.06,279.15,93,75,4.0
458,Port Hardy,6111862,50.7,-127.42,289.15,289.15,59,20,4.6
459,Tucuman,3934608,-17.17,-70.89,284.1,284.1,48,56,0.64
460,Yabelo,326036,4.89,38.09,292.9,292.9,58,93,4.32
461,Rawson,3839307,-43.3,-65.11,288.9,288.9,24,78,5.65
462,Champerico,3530097,16.38,-93.6,302.15,302.15,58,90,3.6
463,Juneau,5554072,58.3,-134.42,283.15,283.15,87,90,5.1
464,Kutum,371745,14.2,24.66,300.5,300.5,47,92,2.32
465,Cayenne,3382160,4.94,-52.33,300.15,300.15,83,0,2.1
466,Cairns,2172797,-16.92,145.77,296.82,300.15,57,90,7.2
467,Yeniseysk,1485997,58.45,92.17,280.8,280.8,77,88,4.9
468,Khani,610864,41.96,42.96,281.15,281.15,87,0,2.1
469,Rancho Palos Verdes,5386035,33.75,-118.37,299.24,304.82,73,40,5.7
470,Kavieng,2094342,-2.57,150.8,301.5,301.5,70,72,1.66
471,Urengoy,1488414,65.96,78.37,278.3,278.3,91,100,13.13
472,Molo,186315,-0.25,35.73,283.4,283.4,92,66,0.83
473,Skibbereen,2961459,51.55,-9.27,282.15,282.15,100,20,1.5
474,Aldan,2027968,58.61,125.39,276.9,276.9,89,44,3.51
475,Orlik,3102488,53.95,17.74,285.18,285.37,100,90,4.1
476,Bela,1182998,26.23,66.31,301.8,301.8,52,0,0.71
477,Mbeya,154380,-8.91,33.47,288.4,288.4,68,11,1.51
478,Yershichi,467134,53.67,32.75,273.8,273.8,94,0,3.28
479,Sechura,3691954,-5.56,-80.82,290.7,290.7,89,27,6.55
480,Venice,4176380,27.1,-82.45,298.62,300.37,65,1,4.6
481,Abu Samrah,172515,35.3,37.18,291.3,291.3,53,0,3.92
482,Anton Lizardo,3532821,19.05,-95.98,302.1,302.15,79,5,3.1
483,Belmonte,8010472,40.36,-7.35,282.44,283.71,93,76,1.48
484,Carauari,3664659,-4.88,-66.9,300.1,300.1,70,69,2.88
485,Yatou,2225940,3.63,9.81,298.15,298.15,100,75,3.72
486,Khash,1160571,28.22,61.21,289.2,289.2,15,0,2.4
487,Ozernovskiy,2122293,51.5,156.52,282.1,282.1,72,70,3.4
488,Sabha,2212775,27.03,14.43,298.9,298.9,34,0,4.53
489,Victoria,1733782,5.28,115.24,301.02,302.15,70,75,2.1
490,Progreso,3440963,-34.68,-56.22,284.15,284.15,57,0,3.6
491,Somerset,4951248,41.77,-71.13,292.86,294.82,77,1,1.5
492,Tame,3667478,6.46,-71.72,285.3,285.3,95,80,1.22
493,Egvekinot,4031742,66.32,-179.17,272.5,272.5,47,0,0.33
494,Bay Roberts,5895424,47.58,-53.28,283.97,284.82,76,75,12.3
495,Parabel,1495586,58.71,81.5,286.6,286.6,71,100,6.9
496,Cam Ranh,1586350,11.92,109.15,300.15,300.15,78,40,1.0
497,Verkhnevilyuysk,2013639,63.45,120.31,275.7,275.7,81,55,3.73
498,Bururi,423328,-3.95,29.62,295.9,295.9,54,0,1.44
499,Chuncheng,6646308,22.17,111.79,294.9,294.9,64,14,1.41
500,Samarkand,1216265,39.65,66.98,289.15,289.15,67,12,7.2
501,Priargunsk,2017646,50.37,119.09,285.1,285.1,66,5,6.44
502,Olinda,2154386,-37.84,145.39,284.13,285.93,62,75,7.7
503,Zhuhai,2052479,40.71,112.04,285.15,285.15,66,0,2.0
504,Khromtau,609404,50.26,58.44,279.7,279.7,74,95,12.22
505,Nizwa,286987,22.93,57.53,296.6,296.6,42,0,0.35
506,Chelles,6443604,48.88,2.59,286.27,287.59,87,20,2.1
507,Carcassonne,3028641,43.21,2.35,287.78,289.82,87,0,1.5
508,Liuli,878242,-11.1,34.65,298.5,298.5,65,0,2.34
509,Porto Walter,3662761,-8.27,-72.74,299.5,299.5,57,58,1.27
510,Honiara,2108502,-9.43,159.96,304.15,304.15,58,75,5.1
511,Shimoda,1852357,34.7,138.93,300.55,301.15,88,40,8.7
512,Luwuk,1637001,-0.95,122.79,292.3,292.3,88,37,1.65
513,Yeppoon,2142316,-23.13,150.74,299.15,299.15,50,20,2.6
514,Mokhotlong,932416,-29.29,29.06,276.6,276.6,92,42,1.61
515,Krutinka,1501690,56.01,71.51,278.7,278.7,79,49,6.84
516,Mogadishu,53654,2.04,45.34,296.9,296.9,78,3,5.37
517,Soissons,2974389,49.38,3.32,287.0,288.15,87,20,2.1
518,Naryan-Mar,523392,67.67,53.09,272.9,272.9,93,2,3.34
519,Westport,4845585,41.14,-73.36,294.75,296.48,78,1,3.6
520,Niquero,3545981,20.04,-77.58,301.3,301.3,75,100,1.48
521,Canmore,5914894,51.09,-115.35,288.43,289.26,62,75,2.6
522,Sobolevo,525426,54.43,31.9,273.8,273.8,94,0,3.25
523,Kahului,5847411,20.89,-156.47,301.7,307.15,49,40,5.7
524,Masvingo,886763,-20.08,30.83,291.4,291.4,32,23,2.89
525,Rocha,3440777,-34.48,-54.34,277.4,277.4,71,0,0.56
526,Oranjemund,3354071,-28.55,16.43,286.9,286.9,78,0,12.63
527,Weiser,5611730,44.25,-116.97,295.38,298.15,33,1,1.5
528,Orobo,2328684,6.84,7.28,298.15,298.15,94,20,1.42
529,Escanaba,4992232,45.75,-87.06,290.07,291.15,100,75,2.02
530,Kruisfontein,986717,-34.0,24.73,283.1,283.1,90,31,3.37
531,Port Townsend,5807239,48.12,-122.76,289.2,290.93,93,90,2.34
532,Tibiri,2438774,13.57,7.05,303.6,303.6,34,48,1.83
533,Tilichiki,2120591,60.47,166.1,280.5,280.5,51,40,1.75
534,Ribeirao Bonito,3451363,-22.07,-48.18,292.5,292.5,67,17,7.05
535,Kiama,2161515,-34.67,150.86,291.53,292.59,33,0,7.7
536,Mutoko,884927,-17.4,32.23,288.3,288.3,53,0,1.4
537,Nieuw Amsterdam,3383434,5.88,-55.08,301.14,302.15,74,0,2.6
538,Broome,2656067,52.47,1.45,287.59,289.82,100,100,3.1
539,Cervo,3469169,-22.19,-46.24,290.3,290.3,78,5,6.1
540,Belaya Gora,2126785,68.54,146.19,275.1,275.1,48,0,2.3
541,Whitehorse,6180550,60.72,-135.06,283.3,283.71,53,75,1.0
542,Miraflores,3947322,-16.39,-71.52,286.15,286.15,54,0,2.1
543,Chake Chake,160677,-5.25,39.77,298.8,298.8,79,24,7.0
544,Santa Marta,3668605,11.24,-74.21,302.15,302.15,79,75,3.1
545,Troitsko-Pechorsk,481548,62.71,56.19,271.3,271.3,94,6,2.52
546,Barahona,3492985,18.21,-71.1,297.8,297.8,83,62,1.78
547,Eureka,5563397,40.8,-124.16,290.61,291.48,88,90,3.1
548,Fare,4034496,-16.7,-151.02,299.8,299.8,79,0,8.05
549,Zaraza,3625066,9.35,-65.33,296.3,296.3,96,100,2.63
550,Fukue,1848373,35.03,136.69,302.66,303.15,74,40,9.8
551,Doha,290030,25.29,51.53,303.41,305.15,79,0,1.5
552,Selenduma,2017063,50.92,106.24,283.9,283.9,80,0,0.74
553,Saint-Leu,6690297,-21.15,55.28,291.36,294.15,72,20,2.6
554,Misratah,2214846,32.38,15.09,298.1,298.1,78,0,7.03
555,Praxedis Guerrero,3974771,31.37,-106.02,300.95,302.15,42,1,2.1
556,Sorong,1626542,-0.86,131.25,300.7,300.7,73,73,2.63
557,Zaysan,1517060,47.47,84.87,292.9,292.9,23,8,5.84
558,Shar,2347266,7.3,8.73,297.0,297.0,93,93,2.02
559,Dingle,1714733,11.0,122.67,299.7,299.7,84,60,1.04
560,Hualmay,3939761,-11.1,-77.61,289.5,289.5,93,90,5.97
561,Shu,1519030,43.6,73.76,289.9,289.9,67,27,7.27
562,Nome,4732862,30.04,-94.42,299.96,300.93,78,1,1.5
563,Axim,2303611,4.87,-2.24,297.5,297.5,91,80,2.37
564,Salamanca,3988214,20.57,-101.19,296.03,299.15,47,40,2.1
565,Teguldet,1489822,57.31,88.17,282.4,282.4,82,97,4.72
566,Alta Floresta,6316343,-9.87,-56.08,295.2,295.2,91,78,0.89
567,Borehamwood,2655186,51.66,-0.27,286.52,288.15,93,75,3.6
568,Brae,2654970,60.4,-1.35,284.73,285.15,100,52,8.2
